Roll, Pitch, Yaw, RollSpeed, PitchSpeed, YawSpeed, AirSpeed, GroundSpeed, Heading, Throttle, Alt, Timestamp, Timeboot, PressureAbs, PressureDiff, Temperature, Battery, WindDirection, WindSpeed, WindSpeedZ, Lat, Lon, Vx, Vy, Vz
0.00543276313692, 0.228393733501, -1.57561576366, -0.000988395884633, 0.000220471032662, 0.00347710284404, 0.022061701864, 0.00999999977648, 269, 0, 584.119995117, 1455725651475000, 33605, 945.020996094, -0.00601562485099, 2600, 100, -180.0, 0.0, 0.0, -353632598, 1491651692, 1, 0, 0
0.00489457696676, 0.152191489935, -1.57516288757, 0.000633022980765, -0.672455728054, 0.00185333995614, 0.022061701864, 0.00999999977648, 269, 62, 584.109985352, 1455725653548000, 35524, 945.022155762, -0.00484375003725, 2600, 99, -180.0, 0.0, 0.0, -353632596, 1491651692, 1, 0, 0
0.00488738203421, 0.141073942184, -1.57163870335, 0.00074943038635, 0.422284841537, -0.0170963183045, 6.74974822998, 5.2999997139, 269, 100, 584.140014648, 1455725654528000, 36484, 945.027038574, 0.0, 2600, 99, -180.0, 0.0, 0.0, -353632594, 1491651335, 9, -530, 0
0.0100011816248, 0.382205545902, -1.58156132698, -0.00544988829643, 0.114137135446, 0.00155494257342, 13.9076251984, 12.8800001144, 269, 100, 585.440002441, 1455725655508000, 37445, 944.90612793, -0.120859369636, 2599, 99, -92.4567260742, 0.000144995283335, 0.0, -353632587, 1491650240, 11, -1288, 279
0.00677891727537, 0.398738622665, -1.58236861229, -0.000122814468341, 0.00554929021746, -0.00418928591534, 17.907207489, 15.3199996948, 269, 100, 590.289978027, 1455725656464000, 38406, 944.374572754, -0.652421832085, 2596, 98, -91.5173721313, 0.00209236820228, 0.0, -353632580, 1491648577, 6, -1532, 506
0.0245067272335, 0.40181607008, -1.57675623894, -0.0122243212536, 0.00461757183075, -0.00151300383732, 19.3823928833, 17.109998703, 269, 100, 595.710021973, 1455725657443000, 39364, 943.777648926, -1.24937498569, 2593, 98, -91.3277053833, 0.00678949104622, 0.0, -353632574, 1491646887, 4, -1710, 594
0.0211343299598, 0.40483123064, -1.57389616966, -0.00249450420961, 0.000385497434763, 0.00260989973322, 20.3647975922, 18.0200004578, 269, 100, 602.340026855, 1455725658425000, 40325, 943.073486328, -1.95351552963, 2588, 97, -91.0179595947, 0.0159122925252, 0.0, -353632563, 1491644924, 9, -1802, 639
0.0182885732502, 0.407296538353, -1.57162821293, -0.00485642487183, 0.00520629901439, 0.000522651651409, 21.0717735291, 18.4899997711, 269, 99, 609.260009766, 1455725659407000, 41286, 942.32208252, -2.70492172241, 2584, 97, -90.7347259521, 0.0296133328229, 0.0, -353632549, 1491642897, 13, -1849, 662
0.700794875622, 0.373462498188, -1.37623906136, 0.20421539247, 0.172824129462, -0.551654756069, 21.0968360901, 18.609998703, 281, 100, 615.570007324, 1455725660387000, 42244, 941.657653809, -3.36937499046, 2580, 97, -89.414100647, 0.0537215135992, 0.0, -353632523, 1491641059, 35, -1860, 635
0.69549870491, 0.291160851717, -1.16215097904, -0.153894498944, 0.201173737645, 0.322047591209, 21.3757209778, 19.3400001526, 293, 99, 621.25, 1455725661344000, 43204, 941.039489746, -3.98749995232, 2576, 96, -86.2803039551, 0.0859698727727, 0.0, -353632110, 1491639019, 535, -1858, 492
0.507447838783, 0.299735814333, -0.850198030472, -0.214104697108, 0.0885553881526, 0.174473747611, 22.2761287689, 20.3199996948, 311, 100, 627.320007324, 1455725662588000, 44404, 940.392456055, -4.63453102112, 2572, 96, -77.6577835083, 0.133870124817, 0.0, -353630901, 1491636792, 1244, -1607, 485
0.388781160116, 0.295592159033, -0.728461623192, -0.180216521025, 0.0394979789853, 0.127911895514, 22.3345451355, 20.8699989319, 318, 100, 630.940002441, 1455725663309000, 45126, 939.881164551, -5.14585924149, 2569, 95, -72.5882263184, 0.163785666227, 0.0, -353629936, 1491635686, 1542, -1406, 492
0.258770853281, 0.290145009756, -0.617208480835, -0.143819764256, 0.016773223877, 0.0808596238494, 22.6648521423, 21.3799991608, 324, 100, 636.070007324, 1455725664290000, 46084, 939.459533691, -5.5674996376, 2566, 95, -65.8506774902, 0.210191175342, 0.0, -353628399, 1491634330, 1764, -1208, 481
0.150588452816, 0.286970436573, -0.534320473671, -0.0857372507453, 0.005454022903, 0.043190445751, 22.9460315704, 21.6800003052, 329, 97, 642.0, 1455725665540000, 47284, 938.801086426, -6.22593736649, 2562, 95, -58.4605407715, 0.274796366692, 0.0, -353626362, 1491632899, 1900, -1042, 479
0.100669510663, 0.280681163073, -0.497586488724, -0.0457504764199, -0.00548772746697, 0.0273530874401, 22.5572395325, 21.75, 331, 99, 646.33001709, 1455725666524000, 48244, 938.335754395, -6.69124984741, 2560, 94, -54.4050941467, 0.322828888893, 0.0, -353624779, 1491631927, 1951, -959, 450
0.0681088194251, 0.278115302324, -0.469747126102, -0.0335248373449, -0.0211286842823, 0.0250788442791, 22.9311523438, 21.8899993896, 333, 93, 650.83001709, 1455725667482000, 49205, 937.841125488, -7.18585920334, 2557, 94, -50.3873291016, 0.384225428104, 0.0, -353623001, 1491630912, 1985, -921, 423
0.0468833036721, 0.266772210598, -0.452591329813, -0.0205570217222, -0.00272185844369, 0.0134576819837, 22.4920101166, 21.5100002289, 334, 96, 654.659973145, 1455725668469000, 50166, 937.430419922, -7.59656238556, 2554, 93, -47.7450218201, 0.439120739698, 0.0, -353621394, 1491630043, 1968, -863, 397
0.0333210863173, 0.265972971916, -0.439196079969, -0.00960026029497, -0.0034667972941, 0.0112896244973, 22.4870090485, 21.4499988556, 334, 91, 658.760009766, 1455725669449000, 51124, 936.990966797, -8.03601551056, 2552, 93, -44.9160957336, 0.509024381638, 0.0, -353619617, 1491629117, 1974, -838, 389
0.0244519487023, 0.226607888937, -0.429958403111, -0.00693025998771, 0.00467651383951, 0.0029608020559, 21.8982830048, 20.9699993134, 335, 88, 662.469970703, 1455725670430000, 52085, 936.592651367, -8.43437480927, 2549, 93, -42.9352722168, 0.572812616825, 0.0, -353617858, 1491628223, 1936, -803, 316
0.0199715103954, 0.236190497875, -0.423653393984, -0.00206855265424, 0.0106602953747, 0.00454004947096, 21.4489345551, 20.7999992371, 335, 93, 665.429992676, 1455725671411000, 53046, 936.286987305, -8.73999977112, 2547, 92, -41.6747589111, 0.626592040062, 0.0, -353616278, 1491627433, 1925, -787, 316
0.0163307599723, 0.20956517756, -0.418630212545, -0.00499399518594, -0.0562552548945, 0.000940961006563, 21.5084819794, 20.8899993896, 336, 83, 668.780029297, 1455725672344000, 54004, 935.917480469, -9.10953140259, 2545, 92, -40.6232147217, 0.683188736439, 0.0, -353614521, 1491626562, 1935, -787, 319
0.0124552641064, 0.162829831243, -0.416519761086, -0.0039008713793, -0.0495775975287, 0.00178426969796, 20.8970108032, 20.1899986267, 336, 78, 670.820007324, 1455725673325000, 54965, 935.699584961, -9.32742214203, 2544, 92, -39.472984314, 0.754590630531, 0.0, -353613001, 1491625814, 1871, -755, 184
0.0103317247704, 0.126947820187, -0.415538012981, -4.92847175337e-05, -0.0247075483203, 0.00107752787881, 20.1855163574, 19.5900001526, 336, 77, 671.91998291, 1455725674308000, 55925, 935.56640625, -9.46062469482, 2543, 91, -38.5983543396, 0.825610816479, 0.0, -353611368, 1491625016, 1818, -728, 79
0.0095184892416, 0.112980514765, -0.413550287485, -0.000430160667747, -0.0107264807448, 0.00180401117541, 19.8662757874, 19.3899993896, 336, 77, 672.280029297, 1455725675285000, 56883, 935.525817871, -9.50117206573, 2543, 91, -38.0926055908, 0.883476734161, 0.0, -353609753, 1491624229, 1800, -720, 25
0.00999434106052, 0.109997272491, -0.409989118576, 0.00159540772438, 0.00588100403547, 0.00282382080331, 19.9512634277, 19.4300003052, 336, 78, 672.429992676, 1455725676537000, 58086, 935.504089355, -9.52289009094, 2543, 91, -37.6674156189, 0.947790145874, 0.0, -353607798, 1491623277, 1803, -723, 14
0.0109348697588, 0.115901745856, -0.40660405159, 0.000639166682959, 0.0109994858503, 0.00276672909968, 20.3357315063, 19.4899997711, 336, 79, 672.659973145, 1455725677494000, 59044, 935.484985352, -9.54203128815, 2542, 90, -37.1911430359, 1.00676965714, 0.0, -353606330, 1491622561, 1809, -725, 28
0.0126660773531, 0.117917411029, -0.402893364429, 0.000759771675803, 0.0103852823377, 0.00342263490893, 20.4102649689, 19.6700000763, 336, 81, 673.070007324, 1455725678473000, 60005, 935.436645508, -9.59039020538, 2542, 90, -37.1658096313, 1.03287827969, 0.0, -353604666, 1491621748, 1825, -732, 42
0.0141036277637, 0.128180369735, -0.398812711239, 0.000657748314552, 0.00679252436385, 0.00406692875549, 20.5997390747, 19.9099998474, 337, 82, 673.630004883, 1455725679454000, 60965, 935.378051758, -9.64898395538, 2542, 90, -37.0524024963, 1.06471741199, 0.0, -353603149, 1491621008, 1848, -739, 66
0.0157208908349, 0.13436730206, -0.394963413477, 0.00216650334187, 0.00601344415918, 0.00488420249894, 20.8944549561, 20.0900001526, 337, 83, 674.429992676, 1455725680432000, 61923, 935.279846191, -9.74718761444, 2541, 89, -36.7419929504, 1.11811411381, 0.0, -353601480, 1491620197, 1866, -743, 81
0.017645444721, 0.141476482153, -0.389532327652, 0.00427302578464, 0.0174714028835, 0.00627422053367, 21.0889892578, 20.2999992371, 337, 84, 675.390014648, 1455725681414000, 62884, 935.192626953, -9.8343744278, 2541, 89, -36.6036529541, 1.14927232265, 0.0, -353599773, 1491619372, 1886, -746, 96
-0.855981588364, 0.306844115257, -0.775463759899, 0.0504667088389, 0.346813857555, -0.354486703873, 21.2356987, 20.4200000763, 315, 100, 676.900024414, 1455725682482000, 63845, 935.041992188, -9.98499965668, 2540, 89, -36.7295761108, 1.1801943779, 0.0, -353598270, 1491618513, 1885, -787, 148
-0.876845777035, 0.301843315363, -1.32134056091, 0.113422200084, 0.260851114988, -0.275025159121, 21.9749298096, 19.7899990082, 284, 94, 681.780029297, 1455725683466000, 64806, 934.510742188, -10.5162496567, 2536, 88, -39.6271018982, 1.26134312153, 0.0, -353597292, 1491616675, 867, -1777, 526
-0.89180803299, 0.227474868298, -1.72195899487, 0.080491669476, 0.320770472288, -0.319799721241, 21.5751495361, 19.7999992371, 261, 84, 685.690002441, 1455725684444000, 65764, 934.089355469, -10.9376564026, 2534, 88, -45.116985321, 1.3736923933, 0.0, -353597123, 1491614721, 19, -1979, 370
-0.890975415707, 0.170840755105, -2.16609430313, 0.0828077197075, 0.318040043116, -0.337485700846, 20.8217315674, 19.3199996948, 235, 79, 688.369995117, 1455725685425000, 66725, 933.75769043, -11.2692966461, 2532, 87, -52.0474662781, 1.48762023449, 0.0, -353597696, 1491612696, -859, -1729, 207
-0.895551502705, 0.122498124838, -2.64524674416, 0.0704218074679, 0.367230564356, -0.347661405802, 20.0839767456, 19.2099990845, 208, 77, 689.630004883, 1455725686403000, 67686, 933.656616211, -11.3703899384, 2531, 87, -58.5116920471, 1.56440591812, 0.0, -353598974, 1491611285, -1583, -1087, 87
-0.828520953655, 0.0757735595107, -3.10048627853, 0.167600423098, 0.263148367405, -0.324528723955, 19.8878288269, 19.5100002289, 182, 72, 689.890014648, 1455725687356000, 68644, 933.619873047, -11.4071092606, 2531, 87, -64.4397277832, 1.59234428406, 0.0, -353600524, 1491610827, -1918, -359, 18
-0.608123660088, -0.0063946088776, 2.78155064583, 0.216310888529, 0.103223830462, -0.246151447296, 19.5676670074, 19.8400001526, 159, 70, 688.700012207, 1455725688611000, 69846, 933.727172852, -11.2998437881, 2532, 86, -69.8284225464, 1.57434153557, 0.0, -353602636, 1491611376, -1898, 580, -135
-0.40343362093, -0.0354253910482, 2.57061862946, 0.182305812836, 0.0619365759194, -0.165435895324, 19.6163864136, 20.2700004578, 147, 71, 686.33001709, 1455725689591000, 70804, 934.000305176, -11.0267181396, 2533, 86, -73.4443588257, 1.52734816074, 0.0, -353604203, 1491612478, -1721, 1070, -247
-0.0595990382135, -0.0351258665323, 2.50268888474, 0.381630897522, 0.0185650270432, 0.0219227988273, 19.9833965302, 20.8899993896, 143, 74, 683.780029297, 1455725690572000, 71765, 934.266357422, -10.7606248856, 2535, 86, -75.6296691895, 1.47908270359, 0.0, -353605513, 1491613786, -1591, 1353, -274
0.168244019151, 0.00185583264101, 2.55797433853, 0.125016644597, 0.0602419562638, 0.085201010108, 20.6703453064, 21.5399990082, 146, 77, 681.190002441, 1455725691555000, 72726, 934.55291748, -10.4740619659, 2537, 86, -77.7520904541, 1.41712749004, 0.0, -353606989, 1491615320, -1657, 1375, -228
0.241595879197, 0.0356484167278, 2.6628818512, 0.0297746453434, 0.0565892532468, 0.107191883028, 20.9965324402, 21.9200000763, 152, 81, 679.489990234, 1455725692534000, 73684, 934.736450195, -10.2905464172, 2538, 85, -80.3844299316, 1.35110712051, 0.0, -353608570, 1491616711, -1812, 1232, -142
0.25250518322, 0.0567486137152, 2.77307462692, -0.0154008427635, 0.0502150654793, 0.106118507683, 21.3363895416, 22.1899986267, 158, 84, 678.460021973, 1455725693489000, 74644, 934.852172852, -10.1748437881, 2539, 85, -82.7270507812, 1.31144762039, 0.0, -353610134, 1491617797, -1940, 1075, -97
0.228833645582, 0.0759071484208, 2.87244296074, -0.0418272167444, 0.0349716097116, 0.0889875814319, 21.6591873169, 22.4399986267, 164, 84, 677.820007324, 1455725694470000, 75605, 934.922546387, -10.1044530869, 2539, 85, -85.6749038696, 1.27740848064, 0.0, -353611984, 1491618782, -2070, 864, -50
0.189851850271, 0.0884152054787, 2.95230841637, -0.0548076927662, 0.0302245412022, 0.069875665009, 22.1095695496, 22.4899997711, 169, 84, 677.590026855, 1455725695448000, 76566, 934.942871094, -10.0841407776, 2539, 84, -88.3936233521, 1.25990986824, 0.0, -353613715, 1491619480, -2147, 670, -14
0.150984346867, 0.0946678370237, 3.01237392426, -0.0397059433162, 0.0164164360613, 0.0570379346609, 22.024728775, 22.4399986267, 172, 86, 677.679992676, 1455725696426000, 77524, 934.936523438, -10.0904684067, 2539, 84, -90.5137405396, 1.25687468052, 0.0, -353615706, 1491620092, -2185, 512, 12
0.112771108747, 0.101342558861, 3.05692338943, -0.0416253879666, 0.0121839325875, 0.038708306849, 22.3345527649, 22.4599990845, 175, 86, 677.950012207, 1455725697387000, 78485, 934.909851074, -10.1171875, 2539, 84, -92.6856918335, 1.25805723667, 0.0, -353617711, 1491620558, -2210, 392, 29
0.0808454379439, 0.107287988067, 3.08788967133, -0.0328177660704, 0.000976748764515, 0.0249150954187, 22.2587871552, 22.3699989319, 176, 86, 678.340026855, 1455725698342000, 79446, 934.872619629, -10.1543750763, 2539, 83, -95.8464279175, 1.26788508892, 0.0, -353619498, 1491620885, -2213, 324, 39
0.0558347664773, 0.109344922006, 3.10677242279, -0.0228048078716, -0.00139925815165, 0.0155990505591, 22.0173988342, 22.359998703, 178, 88, 678.710021973, 1455725699322000, 80404, 934.830810547, -10.1961717606, 2538, 83, -98.6189498901, 1.28310477734, 0.0, -353621479, 1491621185, -2220, 267, 31
0.0269396472722, 0.109361112118, 3.12023258209, 0.00322670303285, 0.0381488241255, -0.0312315393239, 22.3926086426, 22.5599994659, 178, 84, 679.359985352, 1455725700572000, 81606, 934.759460449, -10.267578125, 2538, 82, -100.811660767, 1.29982805252, 0.0, -353623896, 1491621498, -2243, 232, 71
0.0215248633176, 0.108912505209, 3.12270355225, 0.00485779950395, -0.0127760916948, 0.000744508462958, 22.4246578217, 22.2600002289, 178, 82, 680.869995117, 1455725701550000, 82564, 934.600524902, -10.426484108, 2537, 82, -102.755836487, 1.31696784496, 0.0, -353625701, 1491621713, -2216, 215, 166
0.0183005258441, 0.100764356554, 3.12000894547, -0.0198875125498, 0.00658702477813, -0.0220999214798, 22.1470527649, 22.0100002289, 178, 84, 681.630004883, 1455725702532000, 83525, 934.517272949, -10.509765625, 2537, 82, -104.543548584, 1.33461427689, 0.0, -353627684, 1491621950, -2190, 215, 8
0.0125955427065, 0.103123620152, 3.11977529526, -0.00223470223136, -0.00511884829029, -0.000618315476459, 21.8404541016, 21.8999996185, 178, 85, 681.820007324, 1455725703517000, 84486, 934.501647949, -10.525390625, 2536, 81, -105.725746155, 1.35012960434, 0.0, -353629683, 1491622189, -2179, 213, 22
0.00936410482973, 0.103086270392, 3.11687040329, -0.002407069318, -0.000743246346246, -0.00241640256718, 21.9120483398, 21.9499988556, 178, 85, 682.090026855, 1455725704478000, 85444, 934.474609375, -10.5524215698, 2536, 81, -106.913040161, 1.36509346962, 0.0, -353631477, 1491622405, -2184, 215, 32
0.00883105397224, 0.10349021852, 3.1137046814, 0.00284854671918, -0.005797510501, -0.00238266307861, 21.8425655365, 21.9699993134, 178, 85, 682.460021973, 1455725705470000, 86405, 934.43182373, -10.5951557159, 2536, 81, -108.584396362, 1.38569915295, 0.0, -353633434, 1491622646, -2185, 221, 36
0.00876375287771, 0.103814378381, 3.11035609245, 0.00400307355449, 0.00302113872021, -0.0020235425327, 21.8977737427, 22.0499992371, 178, 85, 682.739990234, 1455725706451000, 87365, 934.403503418, -10.6235151291, 2536, 80, -109.442581177, 1.39702427387, 0.0, -353635221, 1491622871, -2193, 227, 29
0.00975608080626, 0.102704562247, 3.10734367371, 0.00204652338289, 0.00383658497594, -0.00165220710915, 21.9806060791, 22.0799999237, 178, 84, 683.070007324, 1455725707431000, 88323, 934.365661621, -10.6613283157, 2536, 80, -110.216766357, 1.40714049339, 0.0, -353637216, 1491623129, -2196, 233, 29
0.0107923531905, 0.10418574512, 3.10505533218, 0.00421185651794, -0.00386459613219, -0.00111466832459, 21.8621292114, 22.0, 177, 84, 683.369995117, 1455725708415000, 89284, 934.339172363, -10.6878118515, 2535, 80, -111.302841187, 1.42168986797, 0.0, -353639189, 1491623388, -2187, 236, 29
0.0113301659003, 0.103211335838, 3.1030049324, 0.00261091161519, -0.0029785996303, -0.00102314958349, 21.722612381, 21.9799995422, 177, 84, 683.599975586, 1455725709369000, 90245, 934.296691895, -10.7303123474, 2535, 79, -112.351776123, 1.43608403206, 0.0, -353640960, 1491623624, -2185, 238, 24
0.011820868589, 0.0999802723527, 3.10126399994, 0.00189506099559, 0.0105482442304, -0.000567517708987, 22.0301399231, 22.0499992371, 177, 83, 683.809997559, 1455725710346000, 91206, 934.283508301, -10.7435150146, 2535, 79, -113.112243652, 1.44638717175, 0.0, -353642935, 1491623890, -2191, 241, 16
0.0125344768167, 0.0998740047216, 3.0993976593, -0.00145455193706, -0.00431090500206, -0.000503600924276, 21.8236598969, 22.0100002289, 177, 84, 684.08001709, 1455725711587000, 92405, 934.252380371, -10.7746095657, 2535, 79, -114.017318726, 1.45871138573, 0.0, -353645308, 1491624213, -2187, 244, 19
0.0130588673055, 0.0999918505549, 3.09791755676, -0.00105844205245, 0.00443385448307, -0.000249314121902, 21.9294872284, 22.0200004578, 177, 83, 684.25, 1455725712572000, 93363, 934.236022949, -10.791015625, 2535, 78, -114.328979492, 1.46195816994, 0.0, -353647109, 1491624459, -2188, 245, 19
0.0134867280722, 0.0968654230237, 3.09717035294, 0.00393234984949, -0.013127294369, 0.000322990235873, 21.7020683289, 21.9399986267, 177, 85, 684.409973145, 1455725713403000, 94085, 934.218566895, -10.8084373474, 2535, 78, -114.54006958, 1.46424865723, 0.0, -353648704, 1491624678, -2180, 245, 21
0.012897869572, 0.09777443856, 3.09655547142, -7.49469909351e-05, -0.00542027922347, -0.000287241651677, 21.7117271423, 22.0, 177, 84, 684.609985352, 1455725714543000, 95285, 934.198791504, -10.8282032013, 2535, 78, -115.501861572, 1.47784507275, 0.0, -353651056, 1491625000, -2185, 245, 13
0.0132427299395, 0.0967093333602, 3.09541678429, 0.00281795207411, 0.00137670477852, 0.000366087653674, 21.7598571777, 21.9599990845, 177, 84, 684.710021973, 1455725715619000, 96246, 934.18927002, -10.8377342224, 2535, 77, -115.979400635, 1.48364841938, 0.0, -353652841, 1491625246, -2182, 246, 9
0.0130844470114, 0.0975007936358, 3.09463882446, -0.0016475636512, 0.00370585126802, 6.44366955385e-05, 21.8180046082, 21.9599990845, 177, 83, 684.820007324, 1455725716600000, 97204, 934.180786133, -10.8462495804, 2534, 77, -116.488960266, 1.48997712135, 0.0, -353654828, 1491625519, -2182, 246, 9
0.0131288720295, 0.093830011785, 3.09429454803, 0.00281642586924, -0.00853666383773, 0.000184018048458, 21.7491912842, 21.8500003815, 177, 84, 684.91998291, 1455725717581000, 98165, 934.165161133, -10.8618745804, 2534, 77, -117.220825195, 1.50085103512, 0.0, -353656585, 1491625761, -2171, 245, 11
0.00219279318117, 0.0885728746653, 3.0902929306, -0.41562089324, -0.0389234721661, -0.124985665083, 21.6981430054, 21.9099998474, 177, 80, 684.960021973, 1455725718559000, 99126, 934.146484375, -10.8805465698, 2534, 76, -117.753471375, 1.50795590878, 0.0, -353658550, 1491626031, -2177, 245, 0
-0.763516128063, 0.162127286196, 2.60100269318, 0.152546271682, 0.273484021425, -0.120889671147, 21.5850543976, 22.0699996948, 149, 87, 685.909973145, 1455725719533000, 100084, 934.062683105, -10.9642963409, 2534, 76, -118.319038391, 1.51610374451, 0.0, -353660410, 1491626769, -1998, 938, 131
-0.720723867416, 0.126880839467, 2.26009654999, 0.0942343920469, 0.207946956158, -0.288524150848, 21.5098190308, 22.5100002289, 129, 85, 687.109985352, 1455725720486000, 101044, 933.932495117, -11.0945310593, 2533, 76, -118.895751953, 1.51490747929, 0.0, -353661806, 1491628195, -1646, 1533, 115
-0.647832274437, 0.101279646158, 1.95311963558, 0.12566511333, 0.15592828393, -0.250204384327, 21.4697666168, 22.8500003815, 111, 81, 687.75, 1455725721467000, 102005, 933.861755371, -11.1652345657, 2533, 75, -119.479324341, 1.49503612518, 0.0, -353662905, 1491630348, -1086, 2010, 45
-0.531407833099, 0.0708082318306, 1.70622324944, 0.165002346039, 0.0879612118006, -0.204289630055, 21.2390861511, 22.7999992371, 97, 80, 687.75, 1455725722424000, 102966, 933.857116699, -11.169921875, 2532, 75, -120.429786682, 1.45639741421, 0.0, -353663432, 1491632536, -502, 2224, -22
-0.349474787712, 0.0472069606185, 1.48791670799, 0.180645018816, 0.0368402451277, -0.131885126233, 21.4484844208, 22.8199996948, 85, 80, 686.869995117, 1455725723666000, 104166, 933.961914062, -11.0650777817, 2533, 74, -122.396705627, 1.36637222767, 0.0, -353663567, 1491635519, 38, 2282, -90
-0.206888765097, 0.0402101278305, 1.38440036774, 0.124656550586, 0.016221806407, -0.0829070731997, 21.5402946472, 22.9799995422, 79, 81, 685.700012207, 1455725724644000, 105124, 934.078186035, -10.9488277435, 2534, 74, -124.033149719, 1.28456938267, 0.0, -353663342, 1491637995, 328, 2274, -116
-0.116298958659, 0.0485220402479, 1.3410640955, 0.123130820692, 0.0173534341156, -0.0372622199357, 21.6113700867, 23.1399993896, 76, 81, 684.859985352, 1455725725333000, 105846, 934.160583496, -10.8664064407, 2534, 74, -124.900474548, 1.23420870304, 0.0, -353663071, 1491639737, 440, 2272, -112
-0.752161026001, 0.139833584428, 0.834552586079, 0.169865190983, 0.281690388918, -0.114497952163, 21.8272590637, 23.1299991608, 47, 87, 684.75, 1455725726578000, 107045, 934.18371582, -10.8432807922, 2534, 73, -126.038093567, 1.15390193462, 0.0, -353662198, 1491642572, 1085, 2042, 104
-0.679915726185, 0.107224844396, 0.524855554104, 0.0991670787334, 0.180510088801, -0.267374664545, 21.8877601624, 22.9099998474, 30, 84, 685.690002441, 1455725727554000, 108006, 934.072814941, -10.9542188644, 2534, 73, -126.237869263, 1.07973778248, 0.0, -353660757, 1491644367, 1717, 1516, 76
-0.584283232689, 0.0808477401733, 0.259642183781, 0.154496103525, 0.12181147933, -0.214335039258, 21.7042446136, 22.4699993134, 14, 82, 685.929992676, 1455725728528000, 108964, 934.057312012, -10.9696874619, 2534, 73, -125.421669006, 1.03446495533, 0.0, -353659135, 1491645458, 2042, 935, 6
-0.45742803812, 0.0575114153326, 0.0505990870297, 0.134051054716, 0.0628421828151, -0.18390339613, 21.5592899323, 21.9899997711, 2, 82, 685.619995117, 1455725729512000, 109925, 934.076721191, -10.9503126144, 2534, 72, -123.612625122, 0.982523620129, 0.0, -353657182, 1491646088, 2160, 412, -51
-0.31613740325, 0.0486066974699, -0.100113347173, 0.162107914686, 0.0311318263412, -0.118691034615, 21.6645641327, 21.7999992371, 354, 82, 684.789978027, 1455725730468000, 110886, 934.172973633, -10.8540620804, 2534, 72, -120.70526123, 0.936418056488, 0.0, -353655227, 1491646229, 2178, 87, -85
-0.186232492328, 0.0460827350616, -0.191256374121, 0.132448807359, 0.0267367977649, -0.065466016531, 21.9084339142, 21.7099990845, 349, 82, 683.890014648, 1455725731444000, 111844, 934.270507812, -10.7564840317, 2535, 72, -117.226127625, 0.914335131645, 0.0, -353653458, 1491646071, 2162, -193, -101
-0.0821388214827, 0.0544352978468, -0.237128719687, 0.0859428793192, 0.0102696688846, -0.0282465107739, 21.8954582214, 21.7700004578, 346, 84, 682.960021973, 1455725732422000, 112805, 934.376708984, -10.6503124237, 2536, 71, -113.48072052, 0.904784619808, 0.0, -353651502, 1491645709, 2148, -351, -85
-0.0130246225744, 0.0668329894543, -0.251380205154, 0.0552849881351, 0.0140922823921, -0.00306804361753, 22.2169456482, 21.9699993134, 345, 84, 682.270019531, 1455725733401000, 113765, 934.449523926, -10.5774993896, 2536, 71, -109.544769287, 0.901103675365, 0.0, -353649760, 1491645307, 2156, -419, -65
0.0261856820434, 0.0779374092817, -0.246630504727, 0.023231305182, 0.00291539379396, 0.00799264013767, 22.0823116302, 22.0299987793, 345, 86, 681.780029297, 1455725734378000, 114723, 934.500671387, -10.5263280869, 2536, 71, -105.722900391, 0.905198991299, 0.0, -353647813, 1491644837, 2160, -425, -37
0.0470758415759, 0.0894790962338, -0.229206189513, 0.00648809503764, 0.00806269608438, 0.0170520171523, 22.3081684113, 22.1000003815, 346, 86, 681.359985352, 1455725735628000, 115926, 934.538574219, -10.4884376526, 2537, 70, -100.73941803, 0.914423644543, 0.0, -353645466, 1491644300, 2174, -395, -29
0.0424201823771, 0.0928662642837, -0.211863666773, 0.00930982083082, -0.00459305662662, -0.0262601170689, 22.4165973663, 22.1899986267, 347, 84, 681.789978027, 1455725736577000, 116884, 934.500854492, -10.5261716843, 2536, 70, -97.6343612671, 0.920668244362, 0.0, -353643496, 1491643895, 2188, -368, 66
0.0493877604604, 0.0836619883776, -0.194239392877, 0.0219745673239, 0.00928829237819, 0.00950752105564, 22.2592658997, 21.9799995422, 348, 81, 683.289978027, 1455725737558000, 117845, 934.329345703, -10.6976556778, 2535, 70, -95.0977935791, 0.92609077692, 0.0, -353641702, 1491643564, 2174, -324, 163
0.0482640378177, 0.0724179446697, -0.185417175293, -0.0128274410963, 0.00597348436713, 0.0118048954755, 21.9378681183, 21.75, 349, 84, 683.549987793, 1455725738544000, 118805, 934.295654297, -10.7313280106, 2535, 69, -92.5951766968, 0.932916045189, 0.0, -353639733, 1491643228, 2154, -300, -51
0.0406896583736, 0.080596446991, -0.167251735926, -0.00965620111674, 0.00552017940208, 0.0103176319972, 22.0151481628, 21.8799991608, 350, 85, 683.059997559, 1455725739531000, 119763, 934.360107422, -10.6668748856, 2536, 69, -89.7106323242, 0.942440211773, 0.0, -353637988, 1491642957, 2171, -269, -52
0.0327226929367, 0.0866554006934, -0.156227707863, -0.00994203053415, 0.0168586280197, 0.00945842452347, 22.4809494019, 22.0599994659, 351, 84, 682.690002441, 1455725740519000, 120724, 934.402770996, -10.6242189407, 2536, 69, -87.6488265991, 0.949845135212, 0.0, -353636002, 1491642680, 2193, -246, -29
0.0258417911828, 0.091367803514, -0.148442864418, -0.00518289860338, 0.00227206107229, 0.00625855941325, 22.0362949371, 22.0100002289, 351, 86, 682.619995117, 1455725741479000, 121685, 934.410766602, -10.6162500381, 2536, 68, -85.706199646, 0.956831991673, 0.0, -353634006, 1491642422, 2189, -230, 0
0.0212188847363, 0.0953214094043, -0.143282085657, -0.00384665140882, 0.00820934399962, 0.00457513006404, 22.3336849213, 22.109998703, 351, 84, 682.710021973, 1455725742464000, 122646, 934.406311035, -10.6207027435, 2536, 68, -83.0976028442, 0.967405319214, 0.0, -353632232, 1491642205, 2200, -220, 13
0.0174829531461, 0.0948996543884, -0.139233529568, 0.000655018142425, 0.00208501680754, 0.00327484612353, 22.300069809, 22.0, 352, 85, 682.890014648, 1455725743443000, 123604, 934.385620117, -10.6414060593, 2536, 68, -80.9206848145, 0.976713359356, 0.0, -353630250, 1491641971, 2190, -209, 19
0.014576270245, 0.0947507247329, -0.136721745133, -0.00208506407216, -0.00363581534475, 0.00176295288838, 22.1637268066, 21.9300003052, 352, 85, 683.08001709, 1455725744422000, 124565, 934.357299805, -10.6696872711, 2536, 67, -78.7311325073, 0.987914383411, 0.0, -353628478, 1491641767, 2183, -205, 22
0.0125923426822, 0.0956371352077, -0.134992316365, 0.000633144984022, -0.0044083269313, 0.00131497869734, 22.0628795624, 21.8999996185, 352, 85, 683.299987793, 1455725745399000, 125525, 934.33807373, -10.6889057159, 2535, 67, -76.5643463135, 0.999884188175, 0.0, -353626510, 1491641543, 2180, -203, 21
0.0115038715303, 0.0942815095186, -0.133280232549, -0.000335867633112, 0.00118776899762, 0.000653365044855, 22.0225448608, 21.8699989319, 352, 84, 683.530029297, 1455725746643000, 126725, 934.3125, -10.7145309448, 2535, 66, -74.8207244873, 1.00940430164, 0.0, -353624121, 1491641272, 2178, -203, 19
0.0110388202593, 0.0922080203891, -0.132844164968, 0.00181609170977, -0.000598542392254, 0.000579868385103, 21.9753665924, 21.8500003815, 352, 84, 683.719970703, 1455725747579000, 127686, 934.287841797, -10.7391405106, 2535, 66, -73.3876190186, 1.01985967159, 0.0, -353622146, 1491641047, 2176, -203, 14
0.0108899408951, 0.0916927903891, -0.132650524378, 0.00143785518594, -0.00457767629996, 0.000553457008209, 21.9801311493, 21.8699989319, 352, 85, 683.820007324, 1455725748400000, 128405, 934.27545166, -10.7515621185, 2535, 66, -71.9739074707, 1.03126335144, 0.0, -353620391, 1491640845, 2177, -205, 11
0.0111051667482, 0.0912447720766, -0.132317706943, 0.00349067384377, -0.00390801718459, 0.000948598375544, 21.8934612274, 21.8400001526, 352, 85, 683.929992676, 1455725749536000, 129605, 934.263793945, -10.7632026672, 2535, 65, -69.764503479, 1.05086994171, 0.0, -353618451, 1491640621, 2174, -206, 11
0.0115046966821, 0.092640414834, -0.131338313222, -0.000676246825606, 0.0108300996944, 0.000743826036341, 22.1871452332, 21.8899993896, 352, 83, 683.979980469, 1455725750515000, 130566, 934.265930176, -10.7610931396, 2535, 65, -68.5149841309, 1.0607354641, 0.0, -353616686, 1491640415, 2179, -208, 7
0.0116448011249, 0.0920898541808, -0.13039149344, 0.00267170998268, 0.00127640063874, 0.00114036328159, 21.9671077728, 21.8099994659, 352, 84, 684.109985352, 1455725751489000, 131524, 934.255859375, -10.7711715698, 2535, 65, -67.0989379883, 1.0743792057, 0.0, -353614726, 1491640185, 2171, -208, 9
0.0119185596704, 0.0915140807629, -0.129836246371, -1.51991262101e-05, -0.00506274867803, 0.000152328284457, 21.9337844849, 21.7600002289, 352, 84, 684.219970703, 1455725752556000, 132484, 934.23638916, -10.7906246185, 2535, 64, -65.8148193359, 1.08710157871, 0.0, -353612771, 1491639956, 2166, -208, 9
0.0121211810037, 0.088090389967, -0.129470080137, -0.000634065305348, 0.00567434541881, 4.87081706524e-07, 22.0438041687, 21.7700004578, 352, 84, 684.179992676, 1455725753532000, 133445, 934.241333008, -10.7857027054, 2535, 64, -65.0244140625, 1.09365820885, 0.0, -353610990, 1491639747, 2167, -208, -8
0.0117419930175, 0.0890885069966, -0.128920271993, 0.00253311102279, -0.0092452308163, 0.000927907414734, 21.8372383118, 21.7199993134, 352, 86, 684.090026855, 1455725754514000, 134406, 934.258422852, -10.7685937881, 2535, 64, -64.2077178955, 1.10212278366, 0.0, -353609012, 1491639514, 2162, -208, -9
0.0120959542692, 0.0925246700644, -0.128289684653, 0.00194130116142, 0.00572565104812, 0.00116915930994, 22.0571880341, 21.8799991608, 352, 85, 683.91998291, 1455725755491000, 135364, 934.28112793, -10.7458591461, 2535, 63, -63.1390419006, 1.1164431572, 0.0, -353607259, 1491639307, 2178, -211, -16
0.0126819442958, 0.0966235697269, -0.125845432281, 0.00178617984056, 0.0118648223579, 0.00351043045521, 22.0452747345, 21.9200000763, 352, 84, 683.75, 1455725756472000, 136325, 934.281860352, -10.7451562881, 2535, 63, -62.3728790283, 1.12516033649, 0.0, -353605279, 1491639072, 2182, -211, -12
0.012403097935, 0.0995643287897, -0.122753404081, 0.00143605924677, -0.00218085106462, 0.00311515014619, 21.9371109009, 21.8199996948, 352, 85, 683.719970703, 1455725757429000, 137286, 934.286804199, -10.740234375, 2535, 63, -61.5308532715, 1.13460946083, 0.0, -353603300, 1491638838, 2172, -210, -1
0.0127049302682, 0.0974008738995, -0.120958380401, -0.000752355554141, 0.0039225127548, 0.00138218642678, 22.0383930206, 21.8999996185, 353, 86, 683.630004883, 1455725758676000, 138485, 934.302856445, -10.7241401672, 2535, 62, -60.5121421814, 1.1483682394, 0.0, -353600951, 1491638559, 2180, -211, -9
0.0117676146328, 0.102866269648, -0.120205424726, -0.00128109392244, 0.000672678928822, 0.000476666376926, 22.1394329071, 21.9799995422, 353, 85, 683.58001709, 1455725759657000, 139446, 934.304199219, -10.7228126526, 2535, 62, -59.6278190613, 1.15942430496, 0.0, -353599172, 1491638348, 2188, -212, -2
0.0112821049988, 0.104783430696, -0.119969248772, -0.000753540312871, -0.0101513154805, -0.00103419972584, 21.9602241516, 21.859998703, 353, 85, 683.640014648, 1455725760371000, 140165, 934.298339844, -10.7286720276, 2535, 62, -58.8397598267, 1.17031919956, 0.0, -353597799, 1491638186, 2175, -210, 13
-0.736831665039, 0.176639318466, -0.624353587627, 0.171596795321, 0.148577943444, -0.214766398072, 21.9227523804, 21.1499996185, 324, 88, 685.020019531, 1455725761627000, 141365, 934.151672363, -10.8753118515, 2534, 61, -58.6016426086, 1.19887280464, 0.0, -353595575, 1491637440, 1902, -925, 173
-0.676061332226, 0.13080470264, -0.949238836765, 0.117339335382, 0.159783139825, -0.25309035182, 21.9587364197, 20.6700000763, 305, 84, 686.609985352, 1455725762611000, 142326, 933.969116211, -11.0578899384, 2533, 61, -59.2225761414, 1.24716222286, 0.0, -353594124, 1491635929, 1404, -1517, 118
-0.577294528484, 0.0966257527471, -1.21681725979, 0.148959487677, 0.0977098196745, -0.222614079714, 21.7409973145, 20.2899990082, 290, 82, 687.280029297, 1455725763562000, 143284, 933.914672852, -11.1123437881, 2533, 61, -60.5409660339, 1.32090866566, 0.0, -353593180, 1491633985, 962, -1785, 47
-0.45407307148, 0.0687472969294, -1.42990493774, 0.153799250722, 0.0635002553463, -0.177971288562, 21.5069103241, 20.0699996948, 278, 81, 687.130004883, 1455725764542000, 144245, 933.93359375, -11.0934371948, 2533, 60, -62.5626678467, 1.42555689812, 0.0, -353592743, 1491632088, 460, -1953, -35
-0.318427592516, 0.0513499863446, -1.58020746708, 0.136336877942, 0.0301672834903, -0.123239405453, 21.294927597, 20.0699996948, 269, 82, 686.33001709, 1455725765520000, 145205, 934.015808105, -11.0111713409, 2533, 60, -64.2982788086, 1.50375986099, 0.0, -353592613, 1491629874, 65, -2006, -85
-0.191419437528, 0.0542020238936, -1.67631423473, 0.142388343811, 0.0322892442346, -0.065707296133, 22.0535907745, 20.3299999237, 263, 80, 685.369995117, 1455725766500000, 146163, 934.109436035, -10.9175777435, 2534, 60, -66.1230163574, 1.57911336422, 0.0, -353592730, 1491627858, -201, -2023, -98
-0.0901029035449, 0.0580466836691, -1.72861194611, 0.079623863101, 0.00980669818819, -0.0332586169243, 21.8169441223, 20.3299999237, 260, 83, 684.489990234, 1455725767479000, 147124, 934.215270996, -10.8117189407, 2535, 59, -68.2859268188, 1.67144966125, 0.0, -353593012, 1491625666, -351, -2002, -81
-0.0214604046196, 0.0640936866403, -1.74824547768, 0.057015940547, 0.0124868089333, -0.00523969950154, 22.0576667786, 20.4899997711, 259, 84, 683.710021973, 1455725768433000, 148085, 934.296081543, -10.7309370041, 2535, 59, -69.7826766968, 1.73473191261, 0.0, -353593375, 1491623453, -408, -2008, -71
-0.658167243004, 0.143423214555, -2.02962636948, -0.0399488024414, 0.192788720131, -0.577323675156, 22.2744064331, 20.6700000763, 243, 90, 683.809997559, 1455725769414000, 149046, 934.284973145, -10.7420310974, 2535, 59, -71.4481201172, 1.81124949455, 0.0, -353593837, 1491621501, -693, -1946, 74
-0.638626098633, 0.127291023731, -2.41122674942, 0.0806590616703, 0.149752020836, -0.258895784616, 22.1524543762, 21.0599994659, 221, 86, 685.489990234, 1455725770655000, 150245, 934.096069336, -10.9309368134, 2534, 58, -73.3369979858, 1.8785353899, 0.0, -353595203, 1491619303, -1453, -1524, 125
-0.574379444122, 0.103930808604, -2.67024087906, 0.111496627331, 0.113904893398, -0.222035288811, 22.1137542725, 21.2399997711, 207, 82, 686.320007324, 1455725771632000, 151203, 934.006835938, -11.0201559067, 2533, 58, -75.0380325317, 1.91736495495, 0.0, -353596826, 1491618014, -1852, -1039, 63
-0.472026377916, 0.0767152458429, -2.88510608673, 0.145819053054, 0.0739088729024, -0.18052969873, 21.9434261322, 21.3299999237, 194, 81, 686.530029297, 1455725772593000, 152164, 933.990356445, -11.0366401672, 2533, 57, -76.8833007812, 1.94733381271, 0.0, -353598467, 1491617342, -2060, -549, -4
-0.350540757179, 0.0568071976304, -3.04900836945, 0.120737224817, 0.0332501977682, -0.144121870399, 21.807888031, 21.5, 185, 82, 686.190002441, 1455725773548000, 153125, 934.036132812, -10.9908590317, 2534, 57, -78.7196502686, 1.96205866337, 0.0, -353600376, 1491617054, -2139, -218, -45
-0.227214053273, 0.0507948212326, 3.12076115608, 0.128082796931, 0.0226933583617, -0.0875787883997, 21.8094425201, 21.8099994659, 178, 83, 685.41998291, 1455725774529000, 154086, 934.10748291, -10.9195308685, 2534, 57, -80.4973220825, 1.96608531475, 0.0, -353602321, 1491617118, -2179, 93, -78
-0.123490780592, 0.0572490394115, 3.05436468124, 0.10608714819, 0.00972094759345, -0.0475036390126, 21.7902908325, 22.0699996948, 175, 83, 684.609985352, 1455725775508000, 155044, 934.209716797, -10.8172655106, 2535, 56, -82.1138687134, 1.95736098289, 0.0, -353604098, 1491617379, -2187, 293, -83
-0.0461840629578, 0.0633617788553, 3.02330589294, 0.0614018067718, 0.0102174235508, -0.0202359054238, 21.783706665, 22.2799987793, 173, 85, 683.760009766, 1455725776490000, 156005, 934.287536621, -10.7394533157, 2535, 56, -83.6608810425, 1.94546055794, 0.0, -353606070, 1491617795, -2192, 399, -76
0.00220335135236, 0.0759271904826, 3.01543712616, 0.0401287600398, 0.0196692105383, 0.00175443827175, 22.2547683716, 22.5399990082, 172, 84, 683.159973145, 1455725777481000, 156965, 934.352539062, -10.6744527817, 2536, 56, -84.9836044312, 1.93271374702, 0.0, -353607858, 1491618220, -2210, 439, -52
0.0312265641987, 0.0841271728277, 3.02086806297, 0.0181218702346, 0.00670151272789, 0.00760032096878, 22.3656387329, 22.5399990082, 173, 85, 682.849975586, 1455725778552000, 157924, 934.383972168, -10.6430463791, 2536, 55, -86.1154937744, 1.92029118538, 0.0, -353609880, 1491618709, -2210, 439, -22
0.0442759729922, 0.0894129648805, 3.03280138969, 0.00723837316036, -0.000825023395009, 0.0142659470439, 22.1313991547, 22.5299987793, 173, 86, 682.820007324, 1455725779540000, 158884, 934.389343262, -10.6376562119, 2536, 55, -87.1881790161, 1.91038274765, 0.0, -353611901, 1491619175, -2214, 415, 3
0.04755718261, 0.090828999877, 3.0474088192, -0.00167002424132, -0.00132563570514, 0.0147887542844, 22.2256698608, 22.5100002289, 174, 86, 682.929992676, 1455725780521000, 159845, 934.376159668, -10.6508588791, 2536, 55, -88.6786422729, 1.89973676205, 0.0, -353613688, 1491619557, -2218, 382, 13
0.0443952009082, 0.0932706743479, 3.06411123276, -0.00287013268098, 0.00197286950424, 0.0131933856755, 22.3222618103, 22.5199985504, 175, 86, 683.099975586, 1455725781659000, 161045, 934.34576416, -10.6812496185, 2535, 54, -90.0235290527, 1.8905069828, 0.0, -353616107, 1491620026, -2226, 342, 17
0.0404139682651, 0.0942162796855, 3.07283806801, -0.00675284396857, -0.00171270687133, 0.0112528102472, 22.1944026947, 22.4599990845, 176, 85, 683.270019531, 1455725782488000, 161764, 934.341674805, -10.6853122711, 2535, 54, -90.7955703735, 1.88629055023, 0.0, -353617523, 1491620277, -2223, 317, 22
0.0341801196337, 0.0928802490234, 3.08252072334, -0.00779362069443, -0.000231047393754, 0.0072829821147, 22.2606811523, 22.4399986267, 176, 85, 683.479980469, 1455725783450000, 162725, 934.313171387, -10.7138280869, 2535, 54, -91.90990448, 1.88186872005, 0.0, -353619532, 1491620608, -2224, 297, 18
0.0264052413404, 0.0944568440318, 3.09062933922, -0.00433936761692, 8.35724640638e-05, 0.00527876103297, 22.0432624817, 22.3899993896, 177, 85, 683.729980469, 1455725784694000, 163924, 934.288879395, -10.7381248474, 2535, 53, -93.1793670654, 1.87776625156, 0.0, -353621943, 1491620974, -2222, 273, 17
0.0216778665781, 0.0950817912817, 3.09479260445, -0.00567908305675, -0.000710834516212, 0.00317200832069, 22.2234992981, 22.3400001526, 177, 85, 683.91998291, 1455725785673000, 164885, 934.272094727, -10.7549219131, 2535, 53, -94.2557220459, 1.87523508072, 0.0, -353623940, 1491621261, -2218, 260, 18
0.0180750712752, 0.0958529785275, 3.09709596634, -0.00240023899823, -0.00687412917614, 0.00183483352885, 22.0098800659, 22.2399997711, 177, 85, 684.109985352, 1455725786659000, 165846, 934.249206543, -10.7778120041, 2535, 53, -95.4299468994, 1.87405383587, 0.0, -353625736, 1491621511, -2210, 251, 21
0.0154229793698, 0.0931588411331, 3.09787011147, -0.0011918740347, 0.00461912807077, 0.00115378340706, 22.0095882416, 22.1800003052, 177, 84, 684.299987793, 1455725787637000, 166804, 934.22076416, -10.8062496185, 2535, 52, -96.2161331177, 1.87203419209, 0.0, -353627751, 1491621786, -2204, 245, 17
0.0131985247135, 0.0906082987785, 3.09788775444, -0.00299818906933, 0.00384969473816, -0.000182825140655, 22.0974235535, 22.2299995422, 177, 85, 684.450012207, 1455725788620000, 167765, 934.209655762, -10.8173437119, 2535, 52, -96.914894104, 1.86986720562, 0.0, -353629562, 1491622030, -2209, 242, 12
0.0118838641793, 0.0912883430719, 3.09753394127, 0.00129958265461, -0.00309626851231, -0.000714325346053, 22.1692867279, 22.2099990845, 177, 84, 684.570007324, 1455725789572000, 168726, 934.203552246, -10.8234376907, 2535, 52, -97.9205474854, 1.86908864975, 0.0, -353631539, 1491622295, -2208, 241, 11
0.0109989661723, 0.0920899510384, 3.09639143944, 0.000458281603642, 0.00898051261902, -0.000901497900486, 22.0648708344, 22.1999988556, 177, 84, 684.650024414, 1455725790547000, 169684, 934.180847168, -10.8461713791, 2534, 51, -98.5920028687, 1.86734747887, 0.0, -353633541, 1491622564, -2207, 242, 4
0.0110899005085, 0.0902267917991, 3.09525823593, 0.00288181123324, -0.00778392609209, -0.000785955693573, 21.8113441467, 22.109998703, 177, 85, 684.770019531, 1455725791524000, 170644, 934.178710938, -10.8482809067, 2534, 51, -99.3113174438, 1.86594057083, 0.0, -353635343, 1491622807, -2197, 242, 12
0.0107882022858, 0.0906959548593, 3.09427523613, 0.00155381730292, -0.00539079122245, -0.00106981419958, 21.925321579, 22.1399993896, 177, 84, 684.849975586, 1455725792505000, 171605, 934.169433594, -10.8575782776, 2534, 50, -100.293502808, 1.8663380146, 0.0, -353637326, 1491623076, -2201, 245, 8
0.0114190885797, 0.0910720527172, 3.09300875664, 0.00288540613838, -0.0053772344254, -0.000779652036726, 21.8992271423, 22.0699996948, 177, 84, 684.950012207, 1455725793753000, 172805, 934.160827637, -10.8661718369, 2534, 50, -101.366844177, 1.86618554592, 0.0, -353639706, 1491623401, -2193, 246, 7
0.0114930607378, 0.0894980952144, 3.09244847298, 0.00300629623234, -0.00251246779226, -0.000556315295398, 22.0759716034, 22.0499992371, 177, 83, 684.989990234, 1455725794440000, 173524, 934.156555176, -10.8704681396, 2534, 50, -102.016525269, 1.86649441719, 0.0, -353641085, 1491623590, -2191, 246, 4
0.0117788743228, 0.0878870412707, 3.09198617935, 0.00205351412296, 0.00457853265107, -5.18581364304e-05, 22.0849838257, 22.0499992371, 177, 84, 684.989990234, 1455725795419000, 174485, 934.152038574, -10.875, 2534, 50, -102.712242126, 1.86593747139, 0.0, -353643062, 1491623862, -2191, 247, -1
0.0118728652596, 0.0907728523016, 3.09127187729, 0.003885964863, -0.00243563437834, -0.000276963459328, 22.0625228882, 22.0699996948, 177, 84, 684.960021973, 1455725796673000, 175685, 934.159667969, -10.8673439026, 2534, 49, -103.388511658, 1.86348319054, 0.0, -353645472, 1491624195, -2193, 248, 0
0.0115083446726, 0.0891496837139, 3.090726614, -0.00306657562032, 0.00526221748441, -0.00118525745347, 22.098236084, 22.0599994659, 177, 84, 684.929992676, 1455725797638000, 176645, 934.161437988, -10.8655462265, 2534, 49, -104.088432312, 1.86311888695, 0.0, -353647260, 1491624441, -2192, 248, -3
0.0113788302988, 0.0894943103194, 3.08971047401, 0.00231063831598, -0.00401274627075, -0.00121139059775, 22.0249710083, 22.0900001526, 177, 84, 684.929992676, 1455725798616000, 177603, 934.165222168, -10.8617963791, 2534, 48, -104.894523621, 1.86449193954, 0.0, -353649225, 1491624712, -2195, 249, 0
0.0116279544309, 0.0908508226275, 3.08909773827, 0.00254788738675, -0.00238565378822, -0.000583560904488, 21.9908390045, 22.109998703, 176, 84, 684.940002441, 1455725799606000, 178564, 934.160827637, -10.8661718369, 2534, 48, -105.773231506, 1.86662185192, 0.0, -353650985, 1491624956, -2197, 249, 2
0.0120718451217, 0.0876822695136, 3.08816671371, 0.000286637339741, 0.000394370406866, -0.000616723205894, 21.8798160553, 22.1199989319, 176, 85, 684.909973145, 1455725800564000, 179525, 934.16229248, -10.8646869659, 2534, 48, -106.326179504, 1.86562514305, 0.0, -353652967, 1491625231, -2197, 250, 0
0.0116164088249, 0.0908041894436, 3.08702588081, 0.0017563549336, -0.00571329891682, -0.000846171984449, 21.8936138153, 22.1499996185, 176, 84, 684.940002441, 1455725801545000, 180486, 934.153503418, -10.8735151291, 2534, 47, -107.02771759, 1.85894179344, 0.0, -353654956, 1491625506, -2201, 250, 4
0.0117947319523, 0.0890900865197, 3.08535289764, 0.000937061733566, -1.33507419378e-05, -0.000960124889389, 21.8644809723, 22.1299991608, 176, 84, 684.989990234, 1455725802520000, 181444, 934.154296875, -10.8727340698, 2534, 47, -107.648857117, 1.85125267506, 0.0, -353656741, 1491625754, -2199, 251, 3
-0.270308762789, 0.0750190168619, 2.9842402935, -4.17066431046, 0.11828777194, -1.61596632004, 21.9783592224, 22.0699996948, 170, 80, 685.049987793, 1455725803499000, 182405, 934.153320312, -10.8736715317, 2534, 47, -108.090507507, 1.84032702446, 0.0, -353658751, 1491626034, -2192, 252, 8
-0.752864062786, 0.139022305608, 2.47083187103, 0.0703732594848, 0.222083613276, -0.360694468021, 21.4877319336, 22.3500003815, 141, 87, 686.58001709, 1455725804745000, 183604, 933.976074219, -11.0509376526, 2533, 46, -108.717643738, 1.84046089649, 0.0, -353660937, 1491627182, -1881, 1207, 161
-0.721477389336, 0.117209419608, 2.2137761116, 0.0916637256742, 0.212526589632, -0.278321355581, 21.4249706268, 22.6999988556, 126, 85, 687.440002441, 1455725805430000, 184323, 933.897583008, -11.1294527054, 2533, 46, -109.193397522, 1.8331900835, 0.0, -353661955, 1491628390, -1611, 1598, 110
-0.638592302799, 0.0906432941556, 1.91208422184, 0.14589600265, 0.14498578012, -0.248013824224, 21.5959911346, 22.9899997711, 109, 81, 687.960021973, 1455725806411000, 185284, 933.848510742, -11.1785154343, 2532, 46, -109.871620178, 1.80798172951, 0.0, -353662990, 1491630590, -1034, 2053, 32
-0.480591833591, 0.0562013424933, 1.6193985939, 0.172287940979, 0.0767544806004, -0.186679825187, 21.6257781982, 22.8999996185, 92, 79, 687.619995117, 1455725807660000, 186484, 933.873413086, -11.1535930634, 2533, 45, -110.993354797, 1.73849785328, 0.0, -353663530, 1491633564, -341, 2264, -48
-0.329443335533, 0.037863701582, 1.45927345753, 0.171533733606, 0.0307123363018, -0.127220198512, 21.4077224731, 22.8699989319, 83, 80, 686.849975586, 1455725808641000, 187445, 933.95098877, -11.0760154724, 2533, 45, -112.063484192, 1.65170300007, 0.0, -353663532, 1491635815, 85, 2285, -97
-0.183694839478, 0.0357400476933, 1.36305439472, 0.140431463718, 0.0214612651616, -0.069233506918, 21.6092624664, 23.0699996948, 78, 81, 685.609985352, 1455725809618000, 188405, 934.094116211, -10.9328899384, 2534, 45, -112.71660614, 1.57986319065, 0.0, -353663259, 1491638343, 365, 2278, -118
-0.181015774608, 0.0363380946219, 1.28112399578, -2.96323275566, 0.0495718494058, -1.08940351009, 21.4761924744, 23.3099994659, 73, 84, 684.549987793, 1455725810595000, 189364, 934.205383301, -10.8216400146, 2535, 44, -113.152923584, 1.52268731594, 0.0, -353662874, 1491640584, 512, 2274, -107
-0.748825132847, 0.143280446529, 0.79071521759, 0.167849093676, 0.194111198187, -0.176306962967, 21.911989212, 23.3099994659, 45, 87, 684.770019531, 1455725811547000, 190324, 934.178466797, -10.8485155106, 2534, 44, -113.358551025, 1.45678150654, 0.0, -353661983, 1491642880, 1166, 2018, 95
-0.675554335117, 0.103578321636, 0.475602209568, 0.130573689938, 0.173098132014, -0.252062648535, 22.0212726593, 22.9799995422, 27, 85, 685.5, 1455725812638000, 191285, 934.09185791, -10.9351558685, 2534, 44, -112.855461121, 1.40635180473, 0.0, -353660437, 1491644607, 1778, 1454, 61
-0.567294239998, 0.0764358639717, 0.213667839766, 0.155922740698, 0.100807920098, -0.218224674463, 21.865316391, 22.4300003052, 12, 83, 685.630004883, 1455725813621000, 192246, 934.088439941, -10.9385938644, 2534, 43, -111.593086243, 1.35197556019, 0.0, -353658774, 1491645596, 2072, 858, -4
-0.431737601757, 0.0554640553892, 0.0102109173313, 0.15203037858, 0.060226097703, -0.17081131041, 21.9634132385, 21.9899997711, 0, 81, 685.210021973, 1455725814599000, 193204, 934.135498047, -10.8914842606, 2534, 43, -109.391990662, 1.30340540409, 0.0, -353656843, 1491646113, 2172, 346, -57
-0.28823363781, 0.0442811176181, -0.127782776952, 0.167229145765, 0.0306973569095, -0.105971865356, 21.8147335052, 21.7600002289, 352, 82, 684.479980469, 1455725815582000, 194165, 934.209960938, -10.8170309067, 2535, 43, -107.466911316, 1.29084825516, 0.0, -353655058, 1491646186, 2176, -28, -87
-0.133186355233, 0.0499453432858, -0.224249437451, 0.122268281877, 0.0201524235308, -0.0471557788551, 22.1174755096, 21.7999992371, 347, 82, 683.349975586, 1455725816714000, 195364, 934.327453613, -10.6995306015, 2535, 42, -104.652626038, 1.28652858734, 0.0, -353652689, 1491645907, 2160, -292, -85
-0.0650493726134, 0.0541857890785, -0.25223749876, 0.0873419269919, 0.00940174981952, -0.0231922809035, 22.1337585449, 21.7899990082, 345, 85, 682.719970703, 1455725817513000, 196084, 934.404663086, -10.6223430634, 2536, 42, -102.705291748, 1.28723883629, 0.0, -353651149, 1491645595, 2148, -364, -72
-0.00164885912091, 0.0640046074986, -0.262895673513, 0.0552712343633, 0.0107248043641, 0.00181144988164, 22.2284851074, 21.9300003052, 344, 86, 682.150024414, 1455725818494000, 197044, 934.456542969, -10.5704689026, 2536, 42, -100.48589325, 1.29637384415, 0.0, -353649396, 1491645184, 2153, -419, -52
0.0374350547791, 0.0799710080028, -0.252870470285, 0.0168127045035, 0.011169988662, 0.013725830242, 22.4881877899, 22.1299991608, 345, 84, 681.690002441, 1455725819737000, 198244, 934.498901367, -10.5281248093, 2536, 41, -97.5517730713, 1.31223070621, 0.0, -353647047, 1491644626, 2173, -416, -22
0.048302680254, 0.0831571444869, -0.238169372082, 0.00720552867278, 0.00105197774246, 0.0155900325626, 22.2411575317, 22.0900001526, 346, 87, 681.599975586, 1455725820719000, 199205, 934.514282227, -10.5127344131, 2536, 41, -95.5334777832, 1.32504761219, 0.0, -353645086, 1491644194, 2176, -384, -4
0.051868069917, 0.0883725881577, -0.220958262682, -0.00392324477434, 0.0153261674568, 0.0174908656627, 22.6391735077, 22.2099990845, 347, 86, 681.609985352, 1455725821700000, 200166, 934.508483887, -10.5185155869, 2536, 40, -94.1089172363, 1.33515167236, 0.0, -353643282, 1491643832, 2193, -348, 7
0.0473809055984, 0.0920765399933, -0.204385653138, -0.00741950748488, 0.0053723254241, 0.0148272756487, 22.5047225952, 22.2099990845, 348, 86, 681.789978027, 1455725822632000, 201124, 934.489135742, -10.5378904343, 2536, 40, -92.3462371826, 1.34656894207, 0.0, -353641290, 1491643475, 2198, -316, 17
0.0397985056043, 0.0942252352834, -0.190729394555, -0.00822075176984, 0.000348685542122, 0.0109669994563, 22.5370521545, 22.1899986267, 349, 86, 682.010009766, 1455725823609000, 202084, 934.473876953, -10.5531244278, 2536, 40, -90.5235061646, 1.35748970509, 0.0, -353639317, 1491643161, 2201, -282, 21
0.032175719738, 0.0959476828575, -0.180056452751, -0.00647424068302, -0.00153241306543, 0.00959994643927, 22.4538002014, 22.109998703, 349, 86, 682.219970703, 1455725824590000, 203045, 934.452453613, -10.5745306015, 2536, 39, -88.3489303589, 1.37122058868, 0.0, -353637553, 1491642908, 2196, -253, 22
0.0258613489568, 0.0942451134324, -0.172440439463, -0.0066045364365, 0.0092757018283, 0.0064957481809, 22.2524452209, 22.1599998474, 350, 86, 682.409973145, 1455725825573000, 204006, 934.441711426, -10.5853118896, 2536, 39, -86.8006210327, 1.3814510107, 0.0, -353635572, 1491642646, 2203, -233, 17
0.0198535993695, 0.0982613712549, -0.167067974806, -0.00536153372377, -0.00126176036429, 0.00403702026233, 22.3552284241, 22.1800003052, 350, 85, 682.609985352, 1455725826522000, 204964, 934.405822754, -10.6211719513, 2536, 39, -85.3467559814, 1.39160251617, 0.0, -353633786, 1491642424, 2207, -223, 24
0.0153322545812, 0.0960492119193, -0.16390645504, -2.92267650366e-05, -0.00191690283827, 0.00259567098692, 22.1205272675, 22.0599994659, 350, 86, 682.909973145, 1455725827501000, 205925, 934.379333496, -10.6476564407, 2536, 38, -83.9408416748, 1.4019048214, 0.0, -353631798, 1491642189, 2196, -210, 26
0.0109613966197, 0.0965793579817, -0.161760032177, -0.0014388950076, 0.00573726091534, 0.000603264430538, 22.2348747253, 22.0200004578, 350, 84, 683.260009766, 1455725828747000, 207125, 934.34197998, -10.6849994659, 2535, 38, -82.6887207031, 1.41133582592, 0.0, -353629386, 1491641912, 2192, -205, 29
0.00893327686936, 0.0929309129715, -0.161832645535, -0.00340149924159, -0.00363754108548, -0.000379172386602, 22.0585021973, 21.8999996185, 350, 85, 683.469970703, 1455725829460000, 207844, 934.306945801, -10.7200775146, 2535, 38, -81.9484558105, 1.41770267487, 0.0, -353627402, 1491641688, 2181, -202, 25
0.00833140686154, 0.0922864973545, -0.162478283048, 0.00155496411026, -0.00362192094326, -0.000463335542008, 21.8957958221, 21.9200000763, 350, 85, 683.700012207, 1455725830442000, 208805, 934.296081543, -10.7309370041, 2535, 37, -80.5903625488, 1.43086504936, 0.0, -353626036, 1491641533, 2183, -203, 18
0.00778800528497, 0.0916971564293, -0.162918180227, 0.00153298396617, 0.00473518576473, -0.000672456109896, 22.1551837921, 21.9399986267, 350, 84, 683.869995117, 1455725831685000, 210004, 934.273864746, -10.7531251907, 2535, 37, -79.4899215698, 1.44137775898, 0.0, -353623660, 1491641262, 2185, -205, 11
0.00757464952767, 0.0908779576421, -0.163519248366, 0.00147265708074, 0.00172501243651, -0.000607670284808, 22.0459461212, 21.859998703, 350, 84, 684.010009766, 1455725832641000, 210965, 934.259033203, -10.7679681778, 2535, 37, -78.7105789185, 1.44958424568, 0.0, -353621878, 1491641058, 2176, -205, 14
0.00745147606358, 0.0907575264573, -0.164552792907, -0.00235444866121, -0.0135972984135, -0.00094743212685, 21.9689826965, 21.7600002289, 350, 85, 684.130004883, 1455725833618000, 211926, 934.248901367, -10.7781248093, 2535, 36, -77.4210128784, 1.46441364288, 0.0, -353619930, 1491640833, 2166, -205, 16
0.0078813508153, 0.0897124931216, -0.164965704083, 0.00187705922872, -0.00169995357282, -0.000567575450987, 21.7933635712, 21.7600002289, 350, 84, 684.190002441, 1455725834595000, 212884, 934.237182617, -10.7898435593, 2535, 36, -76.5504302979, 1.47432506084, 0.0, -353617966, 1491640604, 2166, -207, 7
0.00891261640936, 0.0855033248663, -0.165410414338, 0.00422951672226, 0.00650640157983, -5.67152164876e-06, 21.9631958008, 21.8500003815, 350, 85, 684.25, 1455725835572000, 213845, 934.235534668, -10.7914838791, 2535, 36, -75.7647476196, 1.48455095291, 0.0, -353616210, 1491640397, 2175, -209, 0
0.00909777265042, 0.0900441259146, -0.165098980069, -0.000633786781691, 0.00059598730877, -0.000126793514937, 22.0453128815, 21.8799991608, 350, 84, 684.289978027, 1455725836553000, 214805, 934.22467041, -10.8023433685, 2535, 35, -74.9688644409, 1.49376904964, 0.0, -353614238, 1491640164, 2178, -210, 4
0.00906944647431, 0.0863126069307, -0.164287477732, 0.00213619298302, 0.005114227999, -0.000124796293676, 22.0265312195, 21.8099994659, 350, 84, 684.369995117, 1455725837508000, 215763, 934.219909668, -10.8071088791, 2535, 35, -74.4948425293, 1.49581182003, 0.0, -353612448, 1491639953, 2171, -210, 8
0.00930809229612, 0.086434841156, -0.163692519069, 0.0027220568154, -0.000754334963858, 0.000224888091907, 21.8078308105, 21.7999992371, 350, 84, 684.429992676, 1455725838488000, 216724, 934.216918945, -10.8100776672, 2535, 35, -73.8631286621, 1.50056362152, 0.0, -353610470, 1491639718, 2170, -211, 4
0.0097042536363, 0.0884977653623, -0.163117453456, -0.000564315589145, 0.00326840998605, -0.000177243025973, 22.1117229462, 21.859998703, 350, 83, 684.41998291, 1455725839731000, 217924, 934.222961426, -10.8040618896, 2535, 34, -72.791633606, 1.511054039, 0.0, -353608135, 1491639439, 2175, -213, -1
0.00989063363522, 0.0862886309624, -0.162052959204, 0.00364095252007, -0.00890859775245, 0.000213622348383, 21.669084549, 21.6899986267, 350, 85, 684.469970703, 1455725840709000, 218885, 934.209106445, -10.8178901672, 2535, 34, -72.2022857666, 1.51456677914, 0.0, -353606162, 1491639203, 2159, -211, 6
0.0111260088161, 0.0862714350224, -0.160814061761, 0.00213220319711, 0.00797211099416, 0.000832579564303, 22.0951061249, 21.8299999237, 350, 83, 684.429992676, 1455725841690000, 219846, 934.210632324, -10.81640625, 2535, 33, -71.5562973022, 1.51998710632, 0.0, -353604389, 1491638989, 2173, -214, -4
0.0109771974385, 0.0852416753769, -0.160017028451, -0.00142150302418, 0.00281025515869, 0.000239203451201, 22.0375080109, 21.7399997711, 350, 84, 684.409973145, 1455725842667000, 220804, 934.20526123, -10.8217182159, 2535, 33, -70.6974182129, 1.52940964699, 0.0, -353602450, 1491638757, 2164, -212, -1
0.011535785161, 0.0837649777532, -0.158476576209, 0.00187876238488, -0.00291489250958, 0.000887882662937, 21.7991104126, 21.7799987793, 350, 85, 684.390014648, 1455725843621000, 221764, 934.218322754, -10.8086719513, 2535, 33, -70.2833557129, 1.53127229214, 0.0, -353600678, 1491638543, 2168, -213, -2
0.0120622180402, 0.0860666111112, -0.156978055835, 0.00134831666946, -0.000403191894293, 0.00120012206025, 22.0276298523, 21.8999996185, 351, 84, 684.33001709, 1455725844603000, 222725, 934.220214844, -10.8067970276, 2535, 32, -69.6461410522, 1.53729188442, 0.0, -353598722, 1491638307, 2179, -215, -4
-0.737782776356, 0.164748132229, -0.401810050011, -0.0409443303943, 0.414669901133, 0.504456520081, 21.9344959259, 21.7799987793, 336, 89, 684.520019531, 1455725845579000, 223686, 934.215820312, -10.8111715317, 2535, 32, -69.0385284424, 1.54598033428, 0.0, -353596767, 1491638013, 2168, -207, 6
-0.705851316452, 0.136021271348, -0.739015698433, 0.0745726376772, 0.193651169538, -0.320578485727, 21.7665157318, 20.8400001526, 317, 87, 685.940002441, 1455725846553000, 224644, 934.045593262, -10.9814062119, 2534, 32, -68.7631912231, 1.56679451466, 0.0, -353595223, 1491637088, 1770, -1099, 163
-0.638249278069, 0.10925270617, -1.03637635708, 0.123750030994, 0.131244570017, -0.248892843723, 21.4260044098, 20.4699993134, 300, 84, 686.960021973, 1455725847511000, 225605, 933.939208984, -11.0878124237, 2533, 31, -68.8061904907, 1.60688066483, 0.0, -353593916, 1491635471, 1285, -1592, 72
-0.509308099747, 0.0731373354793, -1.33977937698, 0.1308298558, 0.0814943090081, -0.205193907022, 21.5776252747, 20.1199989319, 283, 81, 687.109985352, 1455725848753000, 226804, 933.91784668, -11.1091403961, 2533, 31, -69.3580474854, 1.68270528316, 0.0, -353592985, 1491633074, 658, -1901, -19
-0.417198091745, 0.0568919815123, -1.48015463352, 0.126909404993, 0.0563946180046, -0.169005140662, 21.5490322113, 20.0299987793, 275, 81, 686.75, 1455725849551000, 227524, 933.973388672, -11.0535936356, 2533, 31, -69.9724197388, 1.73860049248, 0.0, -353592733, 1491631584, 383, -1966, -57
-0.288323283195, 0.0491908229887, -1.61734092236, 0.14996689558, 0.0289727058262, -0.107604928315, 21.5876808167, 20.1000003815, 267, 81, 685.840026855, 1455725850530000, 228484, 934.058898926, -10.9681243896, 2534, 30, -70.7788009644, 1.79413163662, 0.0, -353592659, 1491629379, 13, -2010, -94
-0.142012476921, 0.0491976477206, -1.71750438213, 0.114886157215, 0.0165939666331, -0.0522226393223, 21.9201831818, 20.2600002289, 261, 82, 684.630004883, 1455725851665000, 229684, 934.194641113, -10.8323431015, 2535, 30, -72.0943222046, 1.8749922514, 0.0, -353592881, 1491626735, -267, -2008, -95
